[
  {
    "id": "B001",
    "name": "Sri Lakshmi Wholesale Stores",
    "businessType": "wholesaler",
    "category": "fmcg",
    "location": "Hyderabad",
    "lat": 17.385,
    "lon": 78.4867,
    "avgOrderVolume": 500,
    "priceRangeMin": 20,
    "priceRangeMax": 40,
    "contact": "srilakshmi.wholesale@example.com",
    "phone": "+91-9876543001",
    "rating": 4.3,
    "yearsInBusiness": 12
  },
  {
    "id": "B002",
    "name": "Metro FMCG Depot",
    "businessType": "wholesaler",
    "category": "fmcg",
    "location": "Bangalore",
    "lat": 12.9716,
    "lon": 77.5946,
    "avgOrderVolume": 800,
    "priceRangeMin": 18,
    "priceRangeMax": 38,
    "contact": "metro.depot@example.com",
    "phone": "+91-9876543002",
    "rating": 4.5,
    "yearsInBusiness": 8
  },
  {
    "id": "B003",
    "name": "Sharma General Kirana Stores",
    "businessType": "retailer",
    "category": "general",
    "location": "Delhi",
    "lat": 28.7041,
    "lon": 77.1025,
    "avgOrderVolume": 150,
    "priceRangeMin": 25,
    "priceRangeMax": 55,
    "contact": "sharma.kirana@example.com",
    "phone": "+91-9876543003",
    "rating": 4.1,
    "yearsInBusiness": 20
  },
  {
    "id": "B004",
    "name": "Patel Kirana & Co",
    "businessType": "retailer",
    "category": "fmcg",
    "location": "Mumbai",
    "lat": 19.076,
    "lon": 72.8777,
    "avgOrderVolume": 200,
    "priceRangeMin": 22,
    "priceRangeMax": 48,
    "contact": "patel.kirana@example.com",
    "phone": "+91-9876543004",
    "rating": 4.2,
    "yearsInBusiness": 15
  },
  {
    "id": "B005",
    "name": "Rajesh Pharma Distributors",
    "businessType": "distributor",
    "category": "pharma",
    "location": "Chennai",
    "lat": 13.0827,
    "lon": 80.2707,
    "avgOrderVolume": 300,
    "priceRangeMin": 50,
    "priceRangeMax": 120,
    "contact": "rajesh.pharma@example.com",
    "phone": "+91-9876543005",
    "rating": 4.6,
    "yearsInBusiness": 9
  },
  {
    "id": "B006",
    "name": "National Agri Traders",
    "businessType": "wholesaler",
    "category": "agri",
    "location": "Pune",
    "lat": 18.5204,
    "lon": 73.8567,
    "avgOrderVolume": 1200,
    "priceRangeMin": 10,
    "priceRangeMax": 30,
    "contact": "national.agri@example.com",
    "phone": "+91-9876543006",
    "rating": 4.0,
    "yearsInBusiness": 18
  },
  {
    "id": "B007",
    "name": "Anand Super Market",
    "businessType": "retailer",
    "category": "fmcg",
    "location": "Hyderabad",
    "lat": 17.3616,
    "lon": 78.4747,
    "avgOrderVolume": 180,
    "priceRangeMin": 28,
    "priceRangeMax": 55,
    "contact": "anand.supermarket@example.com",
    "phone": "+91-9876543007",
    "rating": 4.4,
    "yearsInBusiness": 6
  },
  {
    "id": "B008",
    "name": "Gujarat Wholesale Hub",
    "businessType": "wholesaler",
    "category": "textiles",
    "location": "Ahmedabad",
    "lat": 23.0225,
    "lon": 72.5714,
    "avgOrderVolume": 2000,
    "priceRangeMin": 80,
    "priceRangeMax": 250,
    "contact": "gujarat.wholesale@example.com",
    "phone": "+91-9876543008",
    "rating": 4.7,
    "yearsInBusiness": 22
  },
  {
    "id": "B009",
    "name": "Jaipur Handicrafts Wholesale",
    "businessType": "wholesaler",
    "category": "handicrafts",
    "location": "Jaipur",
    "lat": 26.9124,
    "lon": 75.7873,
    "avgOrderVolume": 600,
    "priceRangeMin": 50,
    "priceRangeMax": 400,
    "contact": "jaipur.handicrafts@example.com",
    "phone": "+91-9876543009",
    "rating": 4.3,
    "yearsInBusiness": 14
  },
  {
    "id": "B010",
    "name": "Southern Spice Traders",
    "businessType": "wholesaler",
    "category": "agri",
    "location": "Chennai",
    "lat": 13.0604,
    "lon": 80.2496,
    "avgOrderVolume": 900,
    "priceRangeMin": 60,
    "priceRangeMax": 180,
    "contact": "southern.spice@example.com",
    "phone": "+91-9876543010",
    "rating": 4.5,
    "yearsInBusiness": 11
  },
  {
    "id": "B011",
    "name": "Kolkata General Distributors",
    "businessType": "distributor",
    "category": "fmcg",
    "location": "Kolkata",
    "lat": 22.5726,
    "lon": 88.3639,
    "avgOrderVolume": 700,
    "priceRangeMin": 15,
    "priceRangeMax": 45,
    "contact": "kolkata.general@example.com",
    "phone": "+91-9876543011",
    "rating": 4.1,
    "yearsInBusiness": 16
  },
  {
    "id": "B012",
    "name": "Bangalore FMCG Depot & Distributors",
    "businessType": "distributor",
    "category": "fmcg",
    "location": "Bangalore",
    "lat": 12.9341,
    "lon": 77.6101,
    "avgOrderVolume": 1000,
    "priceRangeMin": 14,
    "priceRangeMax": 42,
    "contact": "blr.fmcg@example.com",
    "phone": "+91-9876543012",
    "rating": 4.6,
    "yearsInBusiness": 7
  },
  {
    "id": "B013",
    "name": "Mumbai Wholesale Market",
    "businessType": "wholesaler",
    "category": "general",
    "location": "Mumbai",
    "lat": 18.9388,
    "lon": 72.8354,
    "avgOrderVolume": 1500,
    "priceRangeMin": 12,
    "priceRangeMax": 60,
    "contact": "mumbai.wholesale@example.com",
    "phone": "+91-9876543013",
    "rating": 4.2,
    "yearsInBusiness": 25
  },
  {
    "id": "B014",
    "name": "Deccan Retail Chain",
    "businessType": "retailer",
    "category": "fmcg",
    "location": "Hyderabad",
    "lat": 17.4432,
    "lon": 78.3780,
    "avgOrderVolume": 250,
    "priceRangeMin": 30,
    "priceRangeMax": 65,
    "contact": "deccan.retail@example.com",
    "phone": "+91-9876543014",
    "rating": 4.4,
    "yearsInBusiness": 5
  },
  {
    "id": "B015",
    "name": "Kumar Medical & General Store",
    "businessType": "retailer",
    "category": "pharma",
    "location": "Delhi",
    "lat": 28.6139,
    "lon": 77.2090,
    "avgOrderVolume": 120,
    "priceRangeMin": 40,
    "priceRangeMax": 150,
    "contact": "kumar.medical@example.com",
    "phone": "+91-9876543015",
    "rating": 4.0,
    "yearsInBusiness": 30
  },
  {
    "id": "B016",
    "name": "Om Prakash Textiles Wholesale",
    "businessType": "wholesaler",
    "category": "textiles",
    "location": "Surat",
    "lat": 21.1702,
    "lon": 72.8311,
    "avgOrderVolume": 3000,
    "priceRangeMin": 60,
    "priceRangeMax": 300,
    "contact": "omprakash.textiles@example.com",
    "phone": "+91-9876543016",
    "rating": 4.8,
    "yearsInBusiness": 19
  },
  {
    "id": "B017",
    "name": "Fresh Basket Supermart",
    "businessType": "retailer",
    "category": "fmcg",
    "location": "Pune",
    "lat": 18.5089,
    "lon": 73.8259,
    "avgOrderVolume": 300,
    "priceRangeMin": 25,
    "priceRangeMax": 60,
    "contact": "freshbasket@example.com",
    "phone": "+91-9876543017",
    "rating": 4.3,
    "yearsInBusiness": 4
  },
  {
    "id": "B018",
    "name": "North India Agri Hub",
    "businessType": "wholesaler",
    "category": "agri",
    "location": "Ludhiana",
    "lat": 30.901,
    "lon": 75.8573,
    "avgOrderVolume": 2500,
    "priceRangeMin": 8,
    "priceRangeMax": 25,
    "contact": "northindia.agri@example.com",
    "phone": "+91-9876543018",
    "rating": 4.1,
    "yearsInBusiness": 23
  },
  {
    "id": "B019",
    "name": "Vinayak Consumer Goods Distributors",
    "businessType": "distributor",
    "category": "fmcg",
    "location": "Nagpur",
    "lat": 21.1458,
    "lon": 79.0882,
    "avgOrderVolume": 600,
    "priceRangeMin": 18,
    "priceRangeMax": 50,
    "contact": "vinayak.cg@example.com",
    "phone": "+91-9876543019",
    "rating": 4.2,
    "yearsInBusiness": 10
  },
  {
    "id": "B020",
    "name": "Eastern Spice Wholesale House",
    "businessType": "wholesaler",
    "category": "agri",
    "location": "Kolkata",
    "lat": 22.5448,
    "lon": 88.3426,
    "avgOrderVolume": 800,
    "priceRangeMin": 70,
    "priceRangeMax": 200,
    "contact": "eastern.spice@example.com",
    "phone": "+91-9876543020",
    "rating": 4.4,
    "yearsInBusiness": 13
  }
]
